[
  {
    "parking": true,
    "kidsRoom": true,
    "paymentByCard": false,
    "zoneWiFi": false,
    "pharmacy": true,
    "id": 1,
    "region": "Вінницький",
    "city": "Вінниця",
    "district": "Центр",
    "address": "вул. Хмельницьке шосе, 96",
    "dataType": "clinic",
    "name": "КОМУНАЛЬНЕ НЕКОМЕРЦІЙНЕ ПІДПРИЄМСТВО “Центр первинної медико-санітарної допомоги №3”",
    "img": "http://mua.ua/img/clinic-avatar.png",
    "clinicType": "Державна клініка",
    "medicine": [
      "Дерматовенерологія",
      "Дитяча дерматовенерологія",
      "Дитяча отоларингологія",
      "Неврологія"
    ],
    "phoneNumber": "+380442987269",
    "tags": [
      {
        "name": "Аптека"
      }
    ],
    "workingHours": [
      {
        "day": "Monday",
        "hours": "09:00-20:00"
      },
      {
        "day": "Tuesday",
        "hours": "09:00-20:00"
      },
      {
        "day": "Wednesday",
        "hours": "09:00-20:00"
      },
      {
        "day": "Thursday",
        "hours": "09:00-20:00"
      },
      {
        "day": "Friday",
        "hours": "09:00-20:00"
      },
      {
        "day": "Saturday",
        "hours": "09:00-18:00"
      },
      {
        "day": "Saturday",
        "hours": null
      }
    ],
    "doctorsIds": [1, 2, 3, 4, 5, 6, 7, 8, 9, 19, 11]
  },
  {
    "parking": true,
    "kidsRoom": true,
    "paymentByCard": true,
    "zoneWiFi": true,
    "pharmacy": true,
    "id": 2,
    "dataType": "clinic",
    "region": "Святошинський район",
    "city": "Київ",
    "district": "ПЗР",
    "address": "вул. Симиренка, 10",
    "name": "КОМУНАЛЬНЕ НЕКОМЕРЦІЙНЕ ПІДПРИЄМСТВО \"КОНСУЛЬТАТИВНО-ДІАГНОСТИЧНИЙ ЦЕНТР\" СВЯТОШИНСЬКОГО РАЙОНУ М. КИЄВА",
    "clinicType": "Приватна клініка",
    "img": "http://mua.ua/img/clinic-avatar.png",
    "medicine": [
      "Дерматовенерологія",
      "Дитяча дерматовенерологія",
      "Дитяча отоларингологія",
      "Неврологія"
    ],
    "phoneNumber": "+380442987269",
    "tags": [
      {
        "name": "Паркінг"
      },
      {
        "name": "Аптека"
      },
      {
        "name": "Wi-Fi зона"
      }
    ],
    "workingHours": [
      {
        "day": "Monday",
        "hours": "09:00-20:00"
      },
      {
        "day": "Tuesday",
        "hours": "09:00-20:00"
      },
      {
        "day": "Wednesday",
        "hours": "09:00-20:00"
      },
      {
        "day": "Thursday",
        "hours": "09:00-20:00"
      },
      {
        "day": "Friday",
        "hours": "09:00-20:00"
      },
      {
        "day": "Saturday",
        "hours": "09:00-18:00"
      },
      {
        "day": "Saturday",
        "hours": null
      }
    ],
    "doctorsIds": [12, 13, 14, 15, 16, 17, 18, 19, 20, 21, 22]
  },
  {
    "parking": true,
    "kidsRoom": true,
    "paymentByCard": false,
    "zoneWiFi": false,
    "pharmacy": true,
    "id": 3,
    "dataType": "clinic",
    "region": "Немишлянський район",
    "city": "Харків",
    "district": "Д",
    "address": "вул. Олімпійська, 3",
    "name": "КОМУНАЛЬНЕ НЕКОМЕРЦІЙНЕ ПІДПРИЄМСТВО \"МІСЬКА ПОЛІКЛІНІКА № 5\" ХАРКІВСЬКОЇ МІСЬКОЇ РАДИ",
    "clinicType": "Державна клініка",
    "img": "http://mua.ua/img/clinic-avatar.png",
    "medicine": [
      "Дерматовенерологія",
      "Дитяча дерматовенерологія",
      "Дитяча отоларингологія",
      "Неврологія"
    ],
    "phoneNumber": "+380442987269",
    "tags": [
      {
        "name": "Паркінг"
      },
      {
        "name": "Аптека"
      },
      {
        "name": "Wi-Fi зона"
      }
    ],
    "workingHours": [
      {
        "day": "Monday",
        "hours": "09:00-20:00"
      },
      {
        "day": "Tuesday",
        "hours": "09:00-20:00"
      },
      {
        "day": "Wednesday",
        "hours": "09:00-20:00"
      },
      {
        "day": "Thursday",
        "hours": "09:00-20:00"
      },
      {
        "day": "Friday",
        "hours": "09:00-20:00"
      },
      {
        "day": "Saturday",
        "hours": "09:00-18:00"
      },
      {
        "day": "Saturday",
        "hours": null
      }
    ],
    "doctorsIds": [23, 24, 25, 26, 27, 28, 29, 30, 31, 32, 33]
  },
  {
    "parking": true,
    "kidsRoom": true,
    "paymentByCard": false,
    "zoneWiFi": false,
    "pharmacy": true,
    "id": 4,
    "dataType": "clinic",
    "region": "Галицький район",
    "city": "Львів",
    "district": "Митниця",
    "address": "вул. Руська, 20",
    "name": "КОМУНАЛЬНЕ НЕКОМЕРЦІЙНЕ ПІДПРИЄМСТВО \"1-А МІСЬКА ПОЛІКЛІНІКА М. ЛЬВОВА\"",
    "clinicType": "Приватна клініка",
    "phoneNumber": "+380442987269",
    "img": "http://mua.ua/img/clinic-avatar.png",
    "medicine": [
      "Дерматовенерологія",
      "Дитяча дерматовенерологія",
      "Дитяча отоларингологія",
      "Неврологія"
    ],
    "tags": null,
    "workingHours": [
      {
        "day": "Monday",
        "hours": "09:00-20:00"
      },
      {
        "day": "Tuesday",
        "hours": "09:00-20:00"
      },
      {
        "day": "Wednesday",
        "hours": "09:00-20:00"
      },
      {
        "day": "Thursday",
        "hours": "09:00-20:00"
      },
      {
        "day": "Friday",
        "hours": "09:00-20:00"
      },
      {
        "day": "Saturday",
        "hours": "09:00-18:00"
      },
      {
        "day": "Saturday",
        "hours": null
      }
    ],
    "doctorsIds": [34, 35, 36, 37, 38, 39, 40, 41, 42, 43, 44]
  },
  {
    "parking": true,
    "kidsRoom": true,
    "paymentByCard": true,
    "zoneWiFi": true,
    "pharmacy": true,
    "id": 5,
    "dataType": "clinic",
    "region": "Київський район",
    "city": "Одеса",
    "district": "Центр",
    "address": "вул. Левітана, 62",
    "name": "КОМУНАЛЬНЕ НЕКОМЕРЦІЙНЕ ПІДПРИЄМСТВО \"КОНСУЛЬТАТИВНО-ДІАГНОСТИЧНИЙ ЦЕНТР №20\" ОДЕСЬКОЇ МІСЬКОЇ РАДИ",
    "clinicType": "Державна клініка",
    "img": "http://mua.ua/img/clinic-avatar.png",
    "medicine": [
      "Дерматовенерологія",
      "Дитяча дерматовенерологія",
      "Дитяча отоларингологія",
      "Неврологія"
    ],
    "phoneNumber": "+380442987269",
    "workingHours": [
      {
        "day": "Monday",
        "hours": "09:00-20:00"
      },
      {
        "day": "Tuesday",
        "hours": "09:00-20:00"
      },
      {
        "day": "Wednesday",
        "hours": "09:00-20:00"
      },
      {
        "day": "Thursday",
        "hours": "09:00-20:00"
      },
      {
        "day": "Friday",
        "hours": "09:00-20:00"
      },
      {
        "day": "Saturday",
        "hours": "09:00-18:00"
      },
      {
        "day": "Saturday",
        "hours": null
      }
    ],
    "doctorsIds": [45, 46, 47, 48, 49, 50, 51, 52, 53, 54, 55]
  },
  {
    "parking": true,
    "kidsRoom": true,
    "paymentByCard": true,
    "zoneWiFi": false,
    "pharmacy": true,
    "id": 6,
    "dataType": "clinic",
    "region": "Немишлянський район",
    "city": "Харків",
    "district": "Центр",
    "address": "пров. Фестивальний, 1",
    "name": "КОМУНАЛЬНЕ НЕКОМЕРЦІЙНЕ ПІДПРИЄМСТВО \"МІСЬКА ПОЛІКЛІНІКА № 8\" ХАРКІВСЬКОЇ МІСЬКОЇ РАДИ",
    "clinicType": "Приватна клініка",
    "img": "http://mua.ua/img/clinic-avatar.png",
    "medicine": [
      "Дерматовенерологія",
      "Дитяча дерматовенерологія",
      "Дитяча отоларингологія",
      "Неврологія"
    ],
    "phoneNumber": "+380442987269",
    "tags": [
      {
        "name": "Паркінг"
      },
      {
        "name": "Аптека"
      }
    ],
    "workingHours": [
      {
        "day": "Monday",
        "hours": "09:00-20:00"
      },
      {
        "day": "Tuesday",
        "hours": "09:00-20:00"
      },
      {
        "day": "Wednesday",
        "hours": "09:00-20:00"
      },
      {
        "day": "Thursday",
        "hours": "09:00-20:00"
      },
      {
        "day": "Friday",
        "hours": "09:00-20:00"
      },
      {
        "day": "Saturday",
        "hours": "09:00-18:00"
      },
      {
        "day": "Saturday",
        "hours": null
      }
    ],
    "doctorsIds": [56, 57, 58, 59, 60, 61, 62, 63, 64, 65, 66]
  },
  {
    "parking": true,
    "kidsRoom": true,
    "paymentByCard": true,
    "zoneWiFi": false,
    "pharmacy": true,
    "id": 7,
    "dataType": "clinic",
    "region": "Хортицький район",
    "city": "Запоріжжя",
    "district": "Центр",
    "address": "вул. Запорізького Козацтва, 25",
    "name": "КОМУНАЛЬНЕ НЕКОМЕРЦІЙНЕ ПІДПРИЄМСТВО \"ЗАПОРІЗЬКИЙ ЦЕНТР ПЕРВИННОЇ МЕДИКО-САНІТАРНОЇ ДОПОМОГИ № 5\"",
    "clinicType": "Державна клініка",
    "img": "http://mua.ua/img/clinic-avatar.png",
    "medicine": [
      "Дерматовенерологія",
      "Дитяча дерматовенерологія",
      "Дитяча отоларингологія",
      "Неврологія"
    ],
    "phoneNumber": "+380442987269",
    "tags": null,
    "workingHours": [
      {
        "day": "Monday",
        "hours": "09:00-20:00"
      },
      {
        "day": "Tuesday",
        "hours": "09:00-20:00"
      },
      {
        "day": "Wednesday",
        "hours": "09:00-20:00"
      },
      {
        "day": "Thursday",
        "hours": "09:00-20:00"
      },
      {
        "day": "Friday",
        "hours": "09:00-20:00"
      },
      {
        "day": "Saturday",
        "hours": "09:00-18:00"
      },
      {
        "day": "Saturday",
        "hours": null
      }
    ],
    "doctorsIds": [67, 68, 69, 70, 71, 72, 73, 74, 75, 76, 77]
  },
  {
    "parking": true,
    "kidsRoom": true,
    "paymentByCard": true,
    "zoneWiFi": false,
    "pharmacy": true,
    "id": 8,
    "dataType": "clinic",
    "region": "Деснянський район",
    "city": "Чернігів",
    "district": "Центр",
    "address": "вул. Шевченка 114",
    "name": "КОМУНАЛЬНЕ НЕКОМЕРЦІЙНЕ ПІДПРИЄМСТВО \"ЧЕРНІГІВСЬКИЙ РАЙОННИЙ ЦЕНТР ПЕРВИННОЇ МЕДИКО-САНІТАРНОЇ ДОПОМОГИ\"",
    "clinicType": "Приватна клініка",
    "img": "http://mua.ua/img/clinic-avatar.png",
    "medicine": [
      "Дерматовенерологія",
      "Дитяча дерматовенерологія",
      "Дитяча отоларингологія",
      "Неврологія"
    ],
    "phoneNumber": "+380442987269",
    "tags": null,
    "workingHours": [
      {
        "day": "Monday",
        "hours": "09:00-20:00"
      },
      {
        "day": "Tuesday",
        "hours": "09:00-20:00"
      },
      {
        "day": "Wednesday",
        "hours": "09:00-20:00"
      },
      {
        "day": "Thursday",
        "hours": "09:00-20:00"
      },
      {
        "day": "Friday",
        "hours": "09:00-20:00"
      },
      {
        "day": "Saturday",
        "hours": "09:00-18:00"
      },
      {
        "day": "Saturday",
        "hours": null
      }
    ],
    "doctorsIds": [78, 79, 80, 81, 82, 83, 84, 85, 86, 87, 88]
  },
  {
    "parking": true,
    "kidsRoom": true,
    "paymentByCard": true,
    "zoneWiFi": false,
    "pharmacy": true,
    "id": 9,
    "dataType": "clinic",
    "region": "Придніпровський район",
    "city": "Черкаси",
    "district": "Митниця",
    "address": "вул. Олімпійська, 3",
    "name": "КОМУНАЛЬНЕ НЕКОМЕРЦІЙНЕ ПІДПРИЄМСТВО «Другий Черкаський міський центр первинної медико-санітарної допомоги»",
    "clinicType": "Державна клініка",
    "img": "http://mua.ua/img/clinic-avatar.png",
    "phoneNumber": "+380442987269",
    "medicine": [
      "Дерматовенерологія",
      "Дитяча дерматовенерологія",
      "Дитяча отоларингологія",
      "Неврологія"
    ],
    "tags": [
      {
        "name": "Аптека"
      }
    ],
    "workingHours": [
      {
        "day": "Monday",
        "hours": "09:00-20:00"
      },
      {
        "day": "Tuesday",
        "hours": "09:00-20:00"
      },
      {
        "day": "Wednesday",
        "hours": "09:00-20:00"
      },
      {
        "day": "Thursday",
        "hours": "09:00-20:00"
      },
      {
        "day": "Friday",
        "hours": "09:00-20:00"
      },
      {
        "day": "Saturday",
        "hours": "09:00-18:00"
      },
      {
        "day": "Saturday",
        "hours": null
      }
    ],
    "doctorsIds": [89, 90, 91, 92, 93, 94, 95, 96, 97, 98, 99]
  },
  {
    "parking": true,
    "kidsRoom": true,
    "paymentByCard": true,
    "zoneWiFi": false,
    "pharmacy": true,
    "id": 10,
    "dataType": "clinic",
    "region": "Суворовського району",
    "city": "Херсон",
    "district": "Центр",
    "name": "Комунального некомерційного підприємства \"Херсонська міська клінічна Лікарня ім. А. і О. Тропіних\"",
    "address": "проспект 200-річчя Херсона, 25",
    "clinicType": "Приватна клініка",
    "phoneNumber": "+380442987269",
    "img": "http://mua.ua/img/clinic-avatar.png",
    "medicine": [
      "Дерматовенерологія",
      "Дитяча дерматовенерологія",
      "Дитяча отоларингологія",
      "Неврологія"
    ],
    "tags": null,
    "workingHours": [
      {
        "day": "Monday",
        "hours": "09:00-20:00"
      },
      {
        "day": "Tuesday",
        "hours": "09:00-20:00"
      },
      {
        "day": "Wednesday",
        "hours": "09:00-20:00"
      },
      {
        "day": "Thursday",
        "hours": "09:00-20:00"
      },
      {
        "day": "Friday",
        "hours": "09:00-20:00"
      },
      {
        "day": "Saturday",
        "hours": "09:00-18:00"
      },
      {
        "day": "Saturday",
        "hours": null
      }
    ],
    "doctorsIds": [100, 101, 102, 103, 104, 105, 106, 107, 108, 109, 110]
  }
]
